<?xml version="1.0"?>
<gpx xmlns="http://www.topografix.com/GPX/1/1" xmlns:gpxx="http://www.garmin.com/xmlschemas/GpxExtensions/v3" creator="CALTOPO" version="1.1"><metadata><name><![CDATA[good-base-ma]]></name></metadata><wpt lat="46.10544788870023" lon="-114.2646035776599"><name>Main Wall- Lost horse canyon</name></wpt><wpt lat="46.1042" lon="-114.26324999999997"><name>Main Wall - Approach</name></wpt><wpt lat="46.1046" lon="-114.26279999999997"><name>Main Wall - Boulders</name></wpt><wpt lat="46.102559113951635" lon="-114.2622599056312"><name>Parking- Main Wall and Starlight Lounge</name></wpt><wpt lat="46.14120290164944" lon="-114.30999755859375"><name>Chute1</name></wpt><wpt lat="46.166115472093864" lon="-114.39937949180603"><name>Good looking skiing</name></wpt><wpt lat="46.14011755129237" lon="-114.32969570159912"><name>Sick bowl brah</name></wpt><wpt lat="46.10212052920946" lon="-114.25128936767578"><name>Pullout boulders</name></wpt><wpt lat="46.09373973668337" lon="-114.25734043121338"><name>Camp spot</name></wpt><wpt lat="46.100167728666435" lon="-114.25944328308105"><name>Camping</name></wpt></gpx>
